Orbit Analysis/Satellite-ISS_UNITY_25575-To-Facility-London Access.csv

"Access","Start Time (UTCG)","Stop Time (UTCG)","Duration (sec)"
1,2 Jul 2021 04:19:06.560,2 Jul 2021 04:24:44.916,338.357
2,2 Jul 2021 05:55:02.736,2 Jul 2021 06:01:06.654,363.917
3,2 Jul 2021 07:32:38.499,2 Jul 2021 07:37:12.405,273.907
4,2 Jul 2021 09:09:20.087,2 Jul 2021 09:14:34.208,314.120
5,2 Jul 2021 10:45:17.562,2 Jul 2021 10:51:43.746,386.183
6,2 Jul 2021 12:23:14.405,2 Jul 2021 12:25:18.015,123.610
7,3 Jul 2021 03:24:15.975,3 Jul 2021 03:28:00.942,224.967
8,3 Jul 2021 04:58:49.568,3 Jul 2021 05:05:11.733,382.165
9,3 Jul 2021 06:36:09.902,3 Jul 2021 06:41:09.185,299.283
10,3 Jul 2021 08:13:20.705,3 Jul 2021 08:18:03.622,282.917
11,3 Jul 2021 09:49:21.023,3 Jul 2021 09:55:36.220,375.197
12,3 Jul 2021 11:25:56.385,3 Jul 2021 11:31:05.627,309.243
13,4 Jul 2021 04:02:52.980,4 Jul 2021 04:09:10.558,377.579
14,4 Jul 2021 05:39:39.545,4 Jul 2021 05:45:12.840,333.295
15,4 Jul 2021 07:17:11.350,4 Jul 2021 07:21:38.435,267.086
16,4 Jul 2021 08:53:27.346,4 Jul 2021 08:59:14.751,347.405
17,4 Jul 2021 10:29:34.658,4 Jul 2021 10:35:44.912,370.254
18,5 Jul 2021 03:07:20.314,5 Jul 2021 03:12:56.235,335.920
19,5 Jul 2021 04:43:14.513,5 Jul 2021 04:49:18.766,364.253
20,5 Jul 2021 06:20:50.085,5 Jul 2021 06:25:23.882,273.796
21,5 Jul 2021 07:57:32.430,5 Jul 2021 08:02:44.916,312.486
22,5 Jul 2021 09:33:29.637,5 Jul 2021 09:39:55.385,385.748
23,5 Jul 2021 11:11:21.170,5 Jul 2021 11:13:35.809,134.638
24,6 Jul 2021 02:12:30.891,6 Jul 2021 02:16:09.452,218.561
25,6 Jul 2021 03:47:00.744,6 Jul 2021 03:53:22.765,382.021
26,6 Jul 2021 05:24:20.289,6 Jul 2021 05:29:19.988,299.700
27,6 Jul 2021 07:01:31.849,6 Jul 2021 07:06:13.363,281.514
28,6 Jul 2021 08:37:32.279,6 Jul 2021 08:43:46.343,374.064
29,6 Jul 2021 10:14:06.280,6 Jul 2021 10:19:17.957,311.677
30,7 Jul 2021 02:51:03.758,7 Jul 2021 02:57:20.340,376.582
31,7 Jul 2021 04:27:48.952,7 Jul 2021 04:33:22.840,333.888
32,7 Jul 2021 06:05:21.147,7 Jul 2021 06:09:47.439,266.292
33,7 Jul 2021 07:41:37.673,7 Jul 2021 07:47:23.505,345.832
34,7 Jul 2021 09:17:44.310,7 Jul 2021 09:23:55.143,370.833
35,8 Jul 2021 01:55:31.045,8 Jul 2021 02:01:04.426,333.381
36,8 Jul 2021 03:31:23.152,8 Jul 2021 03:37:27.820,364.668
37,8 Jul 2021 05:08:58.517,8 Jul 2021 05:13:32.280,273.763
38,8 Jul 2021 06:45:41.687,8 Jul 2021 06:50:52.484,310.797
39,8 Jul 2021 08:21:38.643,8 Jul 2021 08:28:03.902,385.259
40,8 Jul 2021 09:59:25.152,8 Jul 2021 10:01:50.246,145.093
41,9 Jul 2021 01:00:42.983,9 Jul 2021 01:04:14.650,211.667
42,9 Jul 2021 02:35:08.803,9 Jul 2021 02:41:30.730,381.926
43,9 Jul 2021 04:12:27.509,9 Jul 2021 04:17:27.734,300.225
44,9 Jul 2021 05:49:39.881,9 Jul 2021 05:54:19.976,280.095
45,9 Jul 2021 07:25:40.472,9 Jul 2021 07:31:53.328,372.856
46,9 Jul 2021 09:02:13.089,9 Jul 2021 09:07:27.214,314.125
47,10 Jul 2021 01:39:11.452,10 Jul 2021 01:45:27.033,375.581
48,10 Jul 2021 03:15:55.196,10 Jul 2021 03:21:29.785,334.589
49,10 Jul 2021 04:53:27.802,10 Jul 2021 04:57:53.351,265.549
50,10 Jul 2021 06:29:44.916,10 Jul 2021 06:35:29.117,344.201
51,10 Jul 2021 08:05:50.875,10 Jul 2021 08:12:02.275,371.401
52,11 Jul 2021 00:43:38.746,11 Jul 2021 00:49:09.484,330.738
53,11 Jul 2021 02:19:28.642,11 Jul 2021 02:25:33.816,365.174
54,11 Jul 2021 03:57:03.778,11 Jul 2021 04:01:37.616,273.838
55,11 Jul 2021 05:33:47.846,11 Jul 2021 05:38:56.914,309.068
56,11 Jul 2021 07:09:44.572,11 Jul 2021 07:16:09.301,384.729
57,11 Jul 2021 08:47:26.278,11 Jul 2021 08:50:01.392,155.114
58,11 Jul 2021 23:48:52.275,11 Jul 2021 23:52:16.500,204.225
59,12 Jul 2021 01:23:13.738,12 Jul 2021 01:29:35.628,381.891
60,12 Jul 2021 03:00:31.550,12 Jul 2021 03:05:32.430,300.880
61,12 Jul 2021 04:37:44.786,12 Jul 2021 04:42:23.475,278.689
62,12 Jul 2021 06:13:45.580,12 Jul 2021 06:19:57.183,371.603
63,12 Jul 2021 07:50:16.799,12 Jul 2021 07:55:33.409,316.610
64,13 Jul 2021 00:27:16.054,13 Jul 2021 00:33:30.637,374.582
65,13 Jul 2021 02:03:58.268,13 Jul 2021 02:09:33.680,335.412
66,13 Jul 2021 03:41:31.294,13 Jul 2021 03:45:56.178,264.884
67,13 Jul 2021 05:17:49.062,13 Jul 2021 05:23:31.592,342.530
68,13 Jul 2021 06:53:54.356,13 Jul 2021 07:00:06.316,371.960
69,13 Jul 2021 23:31:43.411,13 Jul 2021 23:37:11.409,327.998
70,14 Jul 2021 01:07:30.976,14 Jul 2021 01:13:36.756,365.780
71,14 Jul 2021 02:45:05.853,14 Jul 2021 02:49:39.893,274.039
72,14 Jul 2021 04:21:50.892,14 Jul 2021 04:26:58.216,307.324
73,14 Jul 2021 05:57:47.415,14 Jul 2021 06:04:11.586,384.171
74,14 Jul 2021 07:35:24.511,14 Jul 2021 07:38:09.287,164.776
75,14 Jul 2021 22:36:58.797,14 Jul 2021 22:40:14.958,196.161
76,15 Jul 2021 00:11:15.540,15 Jul 2021 00:17:37.454,381.914
77,15 Jul 2021 01:48:32.400,15 Jul 2021 01:53:34.074,301.674
78,15 Jul 2021 03:25:46.547,15 Jul 2021 03:30:23.864,277.318
79,15 Jul 2021 05:01:47.596,15 Jul 2021 05:07:57.911,370.315
80,15 Jul 2021 06:38:17.407,15 Jul 2021 06:43:36.534,319.127
81,15 Jul 2021 23:15:17.561,15 Jul 2021 23:21:31.139,373.578
82,16 Jul 2021 00:51:58.157,16 Jul 2021 00:57:34.525,336.368
83,16 Jul 2021 02:29:31.611,16 Jul 2021 02:33:55.930,264.319
84,16 Jul 2021 04:05:50.109,16 Jul 2021 04:11:30.936,340.827
85,16 Jul 2021 05:41:54.738,16 Jul 2021 05:48:07.267,372.529
86,16 Jul 2021 22:19:45.049,16 Jul 2021 22:25:10.179,325.131
87,16 Jul 2021 23:55:30.146,17 Jul 2021 00:01:36.633,366.487
88,17 Jul 2021 01:33:04.728,17 Jul 2021 01:37:39.115,274.388
89,17 Jul 2021 03:09:50.812,17 Jul 2021 03:14:56.396,305.584
90,17 Jul 2021 04:45:47.161,17 Jul 2021 04:52:10.761,383.600
91,17 Jul 2021 06:23:19.803,17 Jul 2021 06:26:13.962,174.159
92,17 Jul 2021 21:25:02.596,17 Jul 2021 21:28:09.971,187.375
93,17 Jul 2021 22:59:14.207,17 Jul 2021 23:05:36.207,382.000
94,18 Jul 2021 00:36:30.046,18 Jul 2021 00:41:32.670,302.624
95,18 Jul 2021 02:13:45.147,18 Jul 2021 02:18:21.161,276.014
96,18 Jul 2021 03:49:46.510,18 Jul 2021 03:55:55.514,369.003
97,18 Jul 2021 05:26:14.904,18 Jul 2021 05:31:36.603,321.699
98,18 Jul 2021 22:03:15.968,18 Jul 2021 22:09:28.549,372.581
99,18 Jul 2021 23:39:54.854,18 Jul 2021 23:45:32.318,337.464
100,19 Jul 2021 01:17:28.729,19 Jul 2021 01:21:52.612,263.884
101,19 Jul 2021 02:53:48.039,19 Jul 2021 02:59:27.157,339.119
102,19 Jul 2021 04:29:52.014,19 Jul 2021 04:36:05.127,373.113
103,19 Jul 2021 21:07:43.654,19 Jul 2021 21:13:05.796,322.142
104,19 Jul 2021 22:43:26.144,19 Jul 2021 22:49:33.451,367.306
105,20 Jul 2021 00:21:00.389,20 Jul 2021 00:25:35.285,274.896
106,20 Jul 2021 01:57:47.590,20 Jul 2021 02:02:51.458,303.867
107,20 Jul 2021 03:33:43.800,20 Jul 2021 03:40:06.826,383.026
108,20 Jul 2021 05:11:12.128,20 Jul 2021 05:14:15.447,183.319
109,20 Jul 2021 20:13:03.735,20 Jul 2021 20:16:01.467,177.733
110,20 Jul 2021 21:47:09.729,20 Jul 2021 21:53:31.877,382.148
111,20 Jul 2021 23:24:24.480,20 Jul 2021 23:29:28.218,303.738
112,21 Jul 2021 01:01:40.573,21 Jul 2021 01:06:15.359,274.787
113,21 Jul 2021 02:37:42.309,21 Jul 2021 02:43:49.992,367.683
114,21 Jul 2021 04:14:09.282,21 Jul 2021 04:19:33.607,324.324
115,21 Jul 2021 20:51:11.273,21 Jul 2021 20:57:22.841,371.567
116,21 Jul 2021 22:27:48.358,21 Jul 2021 22:33:27.051,338.694
117,22 Jul 2021 00:05:22.640,22 Jul 2021 00:09:46.223,263.583
118,22 Jul 2021 01:41:42.839,22 Jul 2021 01:47:20.249,337.410
119,22 Jul 2021 03:17:46.174,22 Jul 2021 03:23:59.897,373.723
120,22 Jul 2021 19:55:39.232,22 Jul 2021 20:00:58.239,319.007
121,22 Jul 2021 21:31:18.967,22 Jul 2021 21:37:27.200,368.232
122,22 Jul 2021 23:08:52.825,22 Jul 2021 23:13:28.407,275.582
123,23 Jul 2021 00:45:41.213,23 Jul 2021 00:50:43.404,302.191
124,23 Jul 2021 02:21:37.320,23 Jul 2021 02:27:59.780,382.461
125,23 Jul 2021 03:59:01.463,23 Jul 2021 04:02:13.756,192.293
126,23 Jul 2021 19:01:02.299,23 Jul 2021 19:03:49.347,167.048
127,23 Jul 2021 20:35:02.107,23 Jul 2021 20:41:24.455,382.348
128,23 Jul 2021 22:12:15.693,23 Jul 2021 22:17:20.716,305.023
129,23 Jul 2021 23:49:32.808,23 Jul 2021 23:54:06.468,273.660
130,24 Jul 2021 01:25:34.982,24 Jul 2021 01:31:41.349,366.366
131,24 Jul 2021 03:02:00.533,24 Jul 2021 03:07:27.547,327.014
132,24 Jul 2021 19:39:03.476,24 Jul 2021 19:45:14.014,370.538
133,24 Jul 2021 21:15:38.653,24 Jul 2021 21:21:18.728,340.076
134,24 Jul 2021 22:53:13.333,24 Jul 2021 22:57:36.773,263.440
135,25 Jul 2021 00:29:34.496,25 Jul 2021 00:35:10.215,335.718
136,25 Jul 2021 02:05:37.208,25 Jul 2021 02:11:51.585,374.377
137,25 Jul 2021 18:43:31.790,25 Jul 2021 18:48:47.489,315.699
138,25 Jul 2021 20:19:08.612,25 Jul 2021 20:25:17.871,369.259
139,25 Jul 2021 21:56:42.027,25 Jul 2021 22:01:18.476,276.450
140,25 Jul 2021 23:33:31.668,25 Jul 2021 23:38:32.236,300.569
141,26 Jul 2021 01:09:27.714,26 Jul 2021 01:15:49.624,381.910
142,26 Jul 2021 02:46:47.785,26 Jul 2021 02:50:08.898,201.112
143,26 Jul 2021 17:48:58.412,26 Jul 2021 17:51:33.473,155.061
144,26 Jul 2021 19:22:51.340,26 Jul 2021 19:29:13.936,382.596
145,26 Jul 2021 21:00:03.678,26 Jul 2021 21:05:10.157,306.479
146,26 Jul 2021 22:37:21.841,26 Jul 2021 22:41:54.486,272.645
147,27 Jul 2021 00:13:24.519,27 Jul 2021 00:19:29.585,365.067
148,27 Jul 2021 01:49:48.648,27 Jul 2021 01:55:18.418,329.770
149,27 Jul 2021 18:26:52.586,27 Jul 2021 18:33:02.050,369.464
150,27 Jul 2021 20:03:25.736,27 Jul 2021 20:09:07.337,341.601
151,27 Jul 2021 21:41:00.787,27 Jul 2021 21:45:24.257,263.470
152,27 Jul 2021 23:17:23.000,27 Jul 2021 23:22:57.054,334.054
153,28 Jul 2021 00:53:25.108,28 Jul 2021 00:59:40.175,375.067
154,28 Jul 2021 17:31:21.337,28 Jul 2021 17:36:33.533,312.197
155,28 Jul 2021 19:06:55.077,28 Jul 2021 19:13:05.453,370.375
156,28 Jul 2021 20:44:27.986,28 Jul 2021 20:49:05.486,277.500
157,28 Jul 2021 22:21:18.942,28 Jul 2021 22:26:17.948,299.007
158,28 Jul 2021 23:57:14.970,29 Jul 2021 00:03:36.352,381.382
159,29 Jul 2021 01:34:31.078,29 Jul 2021 01:38:00.877,209.798
160,29 Jul 2021 16:36:52.276,29 Jul 2021 16:39:13.643,141.367
161,29 Jul 2021 18:10:37.431,29 Jul 2021 18:17:00.308,382.878
162,29 Jul 2021 19:47:48.434,29 Jul 2021 19:52:56.534,308.101
163,29 Jul 2021 21:25:07.661,29 Jul 2021 21:29:39.410,271.749
164,29 Jul 2021 23:01:10.909,29 Jul 2021 23:07:14.691,363.782
165,30 Jul 2021 00:37:33.620,30 Jul 2021 00:43:06.214,332.594
166,30 Jul 2021 17:14:38.600,30 Jul 2021 17:20:46.944,368.344
167,30 Jul 2021 18:51:09.622,30 Jul 2021 18:56:52.868,343.246
168,30 Jul 2021 20:28:45.002,30 Jul 2021 20:33:08.670,263.668
169,30 Jul 2021 22:05:08.341,30 Jul 2021 22:10:40.764,332.423
170,30 Jul 2021 23:41:09.865,30 Jul 2021 23:47:25.666,375.801
171,31 Jul 2021 16:19:07.883,31 Jul 2021 16:24:16.350,308.467
172,31 Jul 2021 17:54:38.366,31 Jul 2021 18:00:49.943,371.577
173,31 Jul 2021 19:32:10.698,31 Jul 2021 19:36:49.432,278.734
174,31 Jul 2021 21:09:03.025,31 Jul 2021 21:14:00.545,297.520
175,31 Jul 2021 22:44:59.081,31 Jul 2021 22:51:19.966,380.885
176,1 Aug 2021 00:22:11.330,1 Aug 2021 00:25:49.693,218.364
177,1 Aug 2021 15:24:44.201,1 Aug 2021 15:26:49.538,125.338

