Orbit Analysis/Satellite-ISS_UNITY_25575-To-Facility-Winnipeg Access.csv

"Access","Start Time (UTCG)","Stop Time (UTCG)","Duration (sec)"
1,2 Jul 2021 05:54:00.724,2 Jul 2021 05:59:00.695,299.971
2,2 Jul 2021 07:29:12.385,2 Jul 2021 07:35:37.414,385.029
3,2 Jul 2021 09:05:34.914,2 Jul 2021 09:11:56.749,381.835
4,2 Jul 2021 10:41:52.480,2 Jul 2021 10:48:17.424,384.944
5,2 Jul 2021 12:18:39.204,2 Jul 2021 12:23:10.286,271.081
6,3 Jul 2021 04:59:21.414,3 Jul 2021 05:02:11.130,169.716
7,3 Jul 2021 06:33:18.556,3 Jul 2021 06:39:35.841,377.285
8,3 Jul 2021 08:09:30.617,3 Jul 2021 08:15:52.941,382.325
9,3 Jul 2021 09:45:51.985,3 Jul 2021 09:52:18.023,386.038
10,3 Jul 2021 11:22:15.985,3 Jul 2021 11:27:57.891,341.906
11,4 Jul 2021 05:37:36.655,4 Jul 2021 05:43:29.598,352.943
12,4 Jul 2021 07:13:26.219,4 Jul 2021 07:19:50.663,384.445
13,4 Jul 2021 08:49:50.536,4 Jul 2021 08:56:13.871,383.335
14,4 Jul 2021 10:26:07.447,4 Jul 2021 10:32:20.836,373.389
15,4 Jul 2021 12:04:18.200,4 Jul 2021 12:05:22.989,64.789
16,5 Jul 2021 04:42:14.729,5 Jul 2021 04:47:11.791,297.062
17,5 Jul 2021 06:17:24.733,5 Jul 2021 06:23:49.225,384.492
18,5 Jul 2021 07:53:47.006,5 Jul 2021 08:00:08.330,381.324
19,5 Jul 2021 09:30:04.556,5 Jul 2021 09:36:29.175,384.619
20,5 Jul 2021 11:06:50.150,5 Jul 2021 11:11:23.771,273.620
21,6 Jul 2021 03:47:37.077,6 Jul 2021 03:50:18.893,161.815
22,6 Jul 2021 05:21:30.189,6 Jul 2021 05:27:46.593,376.404
23,6 Jul 2021 06:57:41.679,6 Jul 2021 07:04:03.583,381.905
24,6 Jul 2021 08:34:03.078,6 Jul 2021 08:40:28.582,385.504
25,6 Jul 2021 10:10:26.600,6 Jul 2021 10:16:09.418,342.818
26,7 Jul 2021 04:25:47.775,7 Jul 2021 04:31:39.134,351.359
27,7 Jul 2021 06:01:36.318,7 Jul 2021 06:08:00.373,384.055
28,7 Jul 2021 07:38:00.586,7 Jul 2021 07:44:23.348,382.762
29,7 Jul 2021 09:14:17.331,7 Jul 2021 09:20:30.833,373.502
30,7 Jul 2021 10:52:20.202,7 Jul 2021 10:53:41.582,81.381
31,8 Jul 2021 03:30:25.728,8 Jul 2021 03:35:19.760,294.032
32,8 Jul 2021 05:05:33.981,8 Jul 2021 05:11:57.959,383.978
33,8 Jul 2021 06:41:55.993,8 Jul 2021 06:48:16.823,380.830
34,8 Jul 2021 08:18:13.545,8 Jul 2021 08:24:37.830,384.285
35,8 Jul 2021 09:54:57.998,8 Jul 2021 09:59:34.203,276.206
36,9 Jul 2021 02:35:50.058,9 Jul 2021 02:38:23.210,153.152
37,9 Jul 2021 04:09:38.734,9 Jul 2021 04:15:54.262,375.528
38,9 Jul 2021 05:45:49.627,9 Jul 2021 05:52:11.146,381.519
39,9 Jul 2021 07:22:11.075,9 Jul 2021 07:28:36.040,384.966
40,9 Jul 2021 08:58:34.124,9 Jul 2021 09:04:17.879,343.755
41,10 Jul 2021 03:13:55.830,10 Jul 2021 03:19:45.583,349.753
42,10 Jul 2021 04:49:43.302,10 Jul 2021 04:56:07.009,383.707
43,10 Jul 2021 06:26:07.530,10 Jul 2021 06:32:29.735,382.205
44,10 Jul 2021 08:02:24.124,10 Jul 2021 08:08:37.744,373.620
45,10 Jul 2021 09:40:20.345,10 Jul 2021 09:41:55.891,95.546
46,11 Jul 2021 02:18:33.716,11 Jul 2021 02:23:24.588,290.872
47,11 Jul 2021 03:53:40.118,11 Jul 2021 04:00:03.627,383.509
48,11 Jul 2021 05:30:01.863,11 Jul 2021 05:36:22.234,380.371
49,11 Jul 2021 07:06:19.438,11 Jul 2021 07:12:43.395,383.957
50,11 Jul 2021 08:43:02.742,11 Jul 2021 08:47:41.593,278.851
51,12 Jul 2021 01:24:00.412,12 Jul 2021 01:26:24.014,143.602
52,12 Jul 2021 02:57:44.182,12 Jul 2021 03:03:58.858,374.676
53,12 Jul 2021 04:33:54.451,12 Jul 2021 04:40:15.633,381.182
54,12 Jul 2021 06:10:15.966,12 Jul 2021 06:16:40.409,384.443
55,12 Jul 2021 07:46:38.548,12 Jul 2021 07:52:23.274,344.726
56,13 Jul 2021 02:02:00.814,13 Jul 2021 02:07:48.934,348.120
57,13 Jul 2021 03:37:47.160,13 Jul 2021 03:44:10.574,383.414
58,13 Jul 2021 05:14:11.356,13 Jul 2021 05:20:33.036,381.680
59,13 Jul 2021 06:50:27.816,13 Jul 2021 06:56:41.576,373.760
60,13 Jul 2021 08:28:18.146,13 Jul 2021 08:30:06.410,108.264
61,14 Jul 2021 01:06:38.688,14 Jul 2021 01:11:26.280,287.592
62,14 Jul 2021 02:41:43.134,14 Jul 2021 02:48:06.220,383.086
63,14 Jul 2021 04:18:04.604,14 Jul 2021 04:24:24.565,379.962
64,14 Jul 2021 05:54:22.223,14 Jul 2021 06:00:45.872,383.649
65,14 Jul 2021 07:31:04.373,14 Jul 2021 07:35:45.942,281.569
66,15 Jul 2021 00:12:08.246,15 Jul 2021 00:14:21.201,132.955
67,15 Jul 2021 01:45:46.523,15 Jul 2021 01:52:00.380,373.857
68,15 Jul 2021 03:21:56.139,15 Jul 2021 03:28:17.048,380.909
69,15 Jul 2021 04:58:17.736,15 Jul 2021 05:04:41.690,383.954
70,15 Jul 2021 06:34:39.860,15 Jul 2021 06:40:25.607,345.746
71,16 Jul 2021 00:50:02.720,16 Jul 2021 00:55:49.187,346.467
72,16 Jul 2021 02:25:47.880,16 Jul 2021 02:32:11.070,383.190
73,16 Jul 2021 04:02:12.052,16 Jul 2021 04:08:33.254,381.202
74,16 Jul 2021 05:38:28.396,16 Jul 2021 05:44:42.328,373.932
75,16 Jul 2021 07:16:13.358,16 Jul 2021 07:18:13.375,120.017
76,16 Jul 2021 23:54:40.642,16 Jul 2021 23:59:24.818,284.176
77,17 Jul 2021 01:29:43.021,17 Jul 2021 01:36:05.741,382.720
78,17 Jul 2021 03:06:04.204,17 Jul 2021 03:12:23.820,379.616
79,17 Jul 2021 04:42:21.890,17 Jul 2021 04:48:45.267,383.377
80,17 Jul 2021 06:19:02.880,17 Jul 2021 06:23:47.243,284.363
81,17 Jul 2021 23:00:13.693,17 Jul 2021 23:02:14.611,120.918
82,18 Jul 2021 00:33:45.751,18 Jul 2021 00:39:58.817,373.066
83,18 Jul 2021 02:09:54.679,18 Jul 2021 02:16:15.391,380.712
84,18 Jul 2021 03:46:16.380,18 Jul 2021 03:52:39.887,383.508
85,18 Jul 2021 05:22:38.052,18 Jul 2021 05:28:24.878,346.826
86,18 Jul 2021 23:38:01.544,18 Jul 2021 23:43:46.337,344.793
87,19 Jul 2021 01:13:45.455,19 Jul 2021 01:20:08.496,383.042
88,19 Jul 2021 02:50:09.606,19 Jul 2021 02:56:30.391,380.785
89,19 Jul 2021 04:26:25.854,19 Jul 2021 04:32:40.010,374.156
90,19 Jul 2021 06:04:05.829,19 Jul 2021 06:06:16.921,131.092
91,19 Jul 2021 22:42:39.578,19 Jul 2021 22:47:20.206,280.627
92,20 Jul 2021 00:17:39.770,20 Jul 2021 00:24:02.188,382.419
93,20 Jul 2021 01:54:00.653,20 Jul 2021 02:00:20.000,379.347
94,20 Jul 2021 03:30:18.426,20 Jul 2021 03:36:41.580,383.154
95,20 Jul 2021 05:06:58.257,20 Jul 2021 05:11:45.511,287.255
96,20 Jul 2021 21:48:17.010,20 Jul 2021 21:50:03.986,106.976
97,20 Jul 2021 23:21:41.859,20 Jul 2021 23:27:54.167,372.308
98,21 Jul 2021 00:57:50.064,21 Jul 2021 01:04:10.663,380.599
99,21 Jul 2021 02:34:11.882,21 Jul 2021 02:40:35.001,383.119
100,21 Jul 2021 04:10:33.115,21 Jul 2021 04:16:21.091,347.976
101,21 Jul 2021 22:25:57.278,21 Jul 2021 22:31:40.377,343.099
102,22 Jul 2021 00:01:39.877,22 Jul 2021 00:08:02.851,382.973
103,22 Jul 2021 01:38:04.008,22 Jul 2021 01:44:24.448,380.440
104,22 Jul 2021 03:14:20.178,22 Jul 2021 03:20:34.616,374.438
105,22 Jul 2021 04:51:55.472,22 Jul 2021 04:54:17.138,141.665
106,22 Jul 2021 21:30:35.498,22 Jul 2021 21:35:12.414,276.916
107,22 Jul 2021 23:05:33.374,22 Jul 2021 23:11:55.558,382.184
108,23 Jul 2021 00:41:53.939,23 Jul 2021 00:48:13.103,379.164
109,23 Jul 2021 02:18:11.822,23 Jul 2021 02:24:34.811,382.990
110,23 Jul 2021 03:54:50.492,23 Jul 2021 03:59:40.740,290.248
111,23 Jul 2021 20:36:18.642,23 Jul 2021 20:37:48.872,90.231
112,23 Jul 2021 22:09:34.843,23 Jul 2021 22:15:46.427,371.584
113,23 Jul 2021 23:45:42.282,23 Jul 2021 23:52:02.860,380.578
114,24 Jul 2021 01:22:04.233,24 Jul 2021 01:28:27.033,382.800
115,24 Jul 2021 02:58:25.038,24 Jul 2021 03:04:14.241,349.203
116,24 Jul 2021 21:13:49.922,24 Jul 2021 21:19:31.300,341.378
117,24 Jul 2021 22:49:31.135,24 Jul 2021 22:55:54.128,382.993
118,25 Jul 2021 00:25:55.248,25 Jul 2021 00:32:15.424,380.176
119,25 Jul 2021 02:02:11.359,25 Jul 2021 02:08:26.142,374.783
120,25 Jul 2021 03:39:42.228,25 Jul 2021 03:42:14.077,151.849
121,25 Jul 2021 20:18:28.405,25 Jul 2021 20:23:01.442,273.037
122,25 Jul 2021 21:53:23.829,25 Jul 2021 21:59:45.843,382.014
123,25 Jul 2021 23:29:44.055,25 Jul 2021 23:36:03.127,379.072
124,26 Jul 2021 01:06:02.066,26 Jul 2021 01:12:24.957,382.891
125,26 Jul 2021 02:42:39.578,26 Jul 2021 02:47:32.923,293.345
126,26 Jul 2021 19:24:19.642,26 Jul 2021 19:25:28.201,68.559
127,26 Jul 2021 20:57:24.701,26 Jul 2021 21:03:35.587,370.886
128,26 Jul 2021 22:33:31.328,26 Jul 2021 22:39:51.979,380.651
129,27 Jul 2021 00:09:53.422,27 Jul 2021 00:16:15.978,382.556
130,27 Jul 2021 01:46:13.811,27 Jul 2021 01:52:04.331,350.520
131,27 Jul 2021 20:01:39.477,27 Jul 2021 20:07:19.093,339.616
132,27 Jul 2021 21:37:19.225,27 Jul 2021 21:43:42.323,383.098
133,27 Jul 2021 23:13:43.315,27 Jul 2021 23:20:03.314,379.999
134,28 Jul 2021 00:49:59.387,28 Jul 2021 00:56:14.599,375.212
135,28 Jul 2021 02:27:26.040,28 Jul 2021 02:30:07.771,161.731
136,28 Jul 2021 19:06:18.313,28 Jul 2021 19:10:47.262,268.948
137,28 Jul 2021 20:41:11.131,28 Jul 2021 20:47:33.035,381.904
138,28 Jul 2021 22:17:30.993,28 Jul 2021 22:23:50.067,379.074
139,28 Jul 2021 23:53:49.149,29 Jul 2021 00:00:12.019,382.870
140,29 Jul 2021 01:30:25.507,29 Jul 2021 01:35:22.055,296.548
141,29 Jul 2021 18:12:24.358,29 Jul 2021 18:12:57.619,33.260
142,29 Jul 2021 19:45:11.431,29 Jul 2021 19:51:21.636,370.204
143,29 Jul 2021 21:21:17.195,29 Jul 2021 21:27:38.013,380.819
144,29 Jul 2021 22:57:39.440,29 Jul 2021 23:04:01.832,382.391
145,30 Jul 2021 00:33:59.426,30 Jul 2021 00:39:51.350,351.923
146,30 Jul 2021 18:49:25.952,30 Jul 2021 18:55:03.750,337.797
147,30 Jul 2021 20:25:04.145,30 Jul 2021 20:31:27.424,383.279
148,30 Jul 2021 22:01:28.203,30 Jul 2021 22:07:48.114,379.911
149,30 Jul 2021 23:37:44.253,30 Jul 2021 23:43:59.968,375.714
150,31 Jul 2021 01:15:06.876,31 Jul 2021 01:17:58.242,171.366
151,31 Jul 2021 17:54:05.228,31 Jul 2021 17:58:29.856,264.628
152,31 Jul 2021 19:28:55.280,31 Jul 2021 19:35:17.127,381.847
153,31 Jul 2021 21:05:14.746,31 Jul 2021 21:11:33.917,379.171
154,31 Jul 2021 22:41:33.064,31 Jul 2021 22:47:55.987,382.924
155,1 Aug 2021 00:18:08.275,1 Aug 2021 00:23:08.136,299.861

