Orbit Analysis/Satellite-ISS_UNITY_25575-To-Facility-Montreal Access.csv

"Access","Start Time (UTCG)","Stop Time (UTCG)","Duration (sec)"
1,2 Jul 2021 04:20:28.294,2 Jul 2021 04:26:29.275,360.981
2,2 Jul 2021 05:56:38.705,2 Jul 2021 06:02:45.897,367.191
3,2 Jul 2021 07:33:40.939,2 Jul 2021 07:39:13.050,332.111
4,2 Jul 2021 09:10:01.988,2 Jul 2021 09:16:16.827,374.839
5,2 Jul 2021 10:46:24.439,2 Jul 2021 10:52:10.860,346.422
6,3 Jul 2021 03:25:10.543,3 Jul 2021 03:30:07.326,296.783
7,3 Jul 2021 05:00:26.922,3 Jul 2021 05:06:48.116,381.195
8,3 Jul 2021 06:37:26.935,3 Jul 2021 06:43:02.462,335.528
9,3 Jul 2021 08:14:03.746,3 Jul 2021 08:20:00.387,356.641
10,3 Jul 2021 09:50:14.126,3 Jul 2021 09:56:34.323,380.197
11,4 Jul 2021 02:31:00.897,4 Jul 2021 02:32:47.627,106.731
12,4 Jul 2021 04:04:25.858,4 Jul 2021 04:10:48.109,382.251
13,4 Jul 2021 05:41:08.661,4 Jul 2021 05:46:57.967,349.306
14,4 Jul 2021 07:18:01.481,4 Jul 2021 07:23:41.271,339.790
15,4 Jul 2021 08:54:12.642,4 Jul 2021 09:00:37.854,385.211
16,4 Jul 2021 10:31:08.072,4 Jul 2021 10:35:29.078,261.006
17,5 Jul 2021 03:08:41.546,5 Jul 2021 03:14:40.923,359.377
18,5 Jul 2021 04:44:50.605,5 Jul 2021 04:50:57.850,367.245
19,5 Jul 2021 06:21:52.905,5 Jul 2021 06:27:24.385,331.480
20,5 Jul 2021 07:58:14.237,5 Jul 2021 08:04:28.098,373.862
21,5 Jul 2021 09:34:35.964,5 Jul 2021 09:40:23.557,347.593
22,6 Jul 2021 02:13:23.908,6 Jul 2021 02:18:17.210,293.301
23,6 Jul 2021 03:48:38.052,6 Jul 2021 03:54:59.096,381.045
24,6 Jul 2021 05:25:37.720,6 Jul 2021 05:31:13.011,335.291
25,6 Jul 2021 07:02:14.946,6 Jul 2021 07:08:10.490,355.545
26,6 Jul 2021 08:38:25.055,6 Jul 2021 08:44:45.300,380.245
27,7 Jul 2021 01:19:19.957,7 Jul 2021 01:20:50.169,90.212
28,7 Jul 2021 02:52:36.400,7 Jul 2021 02:58:57.979,381.579
29,7 Jul 2021 04:29:18.366,7 Jul 2021 04:35:07.721,349.355
30,7 Jul 2021 06:06:11.535,7 Jul 2021 06:11:50.368,338.833
31,7 Jul 2021 07:42:22.757,7 Jul 2021 07:48:47.333,384.576
32,7 Jul 2021 09:19:16.494,7 Jul 2021 09:23:41.056,264.562
33,8 Jul 2021 01:56:51.740,8 Jul 2021 02:02:49.478,357.737
34,8 Jul 2021 03:32:59.374,8 Jul 2021 03:39:06.734,367.360
35,8 Jul 2021 05:10:01.749,8 Jul 2021 05:15:32.632,330.883
36,8 Jul 2021 06:46:23.400,8 Jul 2021 06:52:36.244,372.845
37,8 Jul 2021 08:22:44.408,8 Jul 2021 08:28:33.171,348.763
38,9 Jul 2021 01:01:34.289,9 Jul 2021 01:06:23.930,289.642
39,9 Jul 2021 02:36:46.062,9 Jul 2021 02:43:07.009,380.947
40,9 Jul 2021 04:13:45.367,9 Jul 2021 04:19:20.481,335.114
41,9 Jul 2021 05:50:23.050,9 Jul 2021 05:56:17.470,354.420
42,9 Jul 2021 07:26:32.903,9 Jul 2021 07:32:53.172,380.269
43,10 Jul 2021 00:07:38.382,10 Jul 2021 00:08:47.210,68.829
44,10 Jul 2021 01:40:43.843,10 Jul 2021 01:47:04.777,380.934
45,10 Jul 2021 03:17:24.916,10 Jul 2021 03:23:14.405,349.488
46,10 Jul 2021 04:54:18.474,10 Jul 2021 04:59:56.358,337.884
47,10 Jul 2021 06:30:29.790,10 Jul 2021 06:36:53.697,383.907
48,10 Jul 2021 08:07:21.816,10 Jul 2021 08:11:49.972,268.156
49,11 Jul 2021 00:44:58.871,11 Jul 2021 00:50:54.930,356.060
50,11 Jul 2021 02:21:05.000,11 Jul 2021 02:27:12.558,367.558
51,11 Jul 2021 03:58:07.458,11 Jul 2021 04:03:37.781,330.323
52,11 Jul 2021 05:34:29.475,11 Jul 2021 05:40:41.274,371.799
53,11 Jul 2021 07:10:49.761,11 Jul 2021 07:16:39.706,349.945
54,11 Jul 2021 23:49:41.683,11 Jul 2021 23:54:27.483,285.801
55,12 Jul 2021 01:24:50.943,12 Jul 2021 01:31:11.852,380.909
56,12 Jul 2021 03:01:49.862,12 Jul 2021 03:07:24.878,335.015
57,12 Jul 2021 04:38:28.047,12 Jul 2021 04:44:21.338,353.291
58,12 Jul 2021 06:14:37.664,12 Jul 2021 06:20:57.944,380.281
59,12 Jul 2021 22:56:00.236,12 Jul 2021 22:56:34.682,34.446
60,13 Jul 2021 00:28:48.179,13 Jul 2021 00:35:08.492,380.313
61,13 Jul 2021 02:05:28.319,13 Jul 2021 02:11:18.030,349.712
62,13 Jul 2021 03:42:22.285,13 Jul 2021 03:47:59.246,336.961
63,13 Jul 2021 05:18:33.730,13 Jul 2021 05:24:56.951,383.220
64,13 Jul 2021 06:55:24.036,13 Jul 2021 06:59:55.841,271.805
65,13 Jul 2021 23:33:02.931,13 Jul 2021 23:38:57.279,354.348
66,14 Jul 2021 01:09:07.474,14 Jul 2021 01:15:15.321,367.847
67,14 Jul 2021 02:46:10.017,14 Jul 2021 02:51:39.855,329.838
68,14 Jul 2021 04:22:32.452,14 Jul 2021 04:28:43.190,370.738
69,14 Jul 2021 05:58:52.014,14 Jul 2021 06:04:43.172,351.159
70,14 Jul 2021 22:37:46.090,14 Jul 2021 22:42:27.863,281.773
71,15 Jul 2021 00:12:52.685,15 Jul 2021 00:19:13.631,380.946
72,15 Jul 2021 01:49:51.194,15 Jul 2021 01:55:26.205,335.011
73,15 Jul 2021 03:26:29.924,15 Jul 2021 03:32:22.096,352.172
74,15 Jul 2021 05:02:39.326,15 Jul 2021 05:08:59.626,380.300
75,15 Jul 2021 23:16:49.399,15 Jul 2021 23:23:09.128,379.730
76,16 Jul 2021 00:53:28.543,16 Jul 2021 00:59:18.592,350.048
77,16 Jul 2021 02:30:22.954,16 Jul 2021 02:35:59.039,336.085
78,16 Jul 2021 04:06:34.568,16 Jul 2021 04:12:57.100,382.533
79,16 Jul 2021 05:43:23.144,16 Jul 2021 05:47:58.659,275.515
80,16 Jul 2021 22:21:03.918,16 Jul 2021 22:26:56.513,352.595
81,16 Jul 2021 23:57:06.786,17 Jul 2021 00:03:15.023,368.236
82,17 Jul 2021 01:34:09.413,17 Jul 2021 01:39:38.842,329.429
83,17 Jul 2021 03:10:32.310,17 Jul 2021 03:16:41.995,369.685
84,17 Jul 2021 04:46:51.158,17 Jul 2021 04:52:43.564,352.406
85,17 Jul 2021 21:25:47.515,17 Jul 2021 21:30:25.046,277.531
86,17 Jul 2021 23:00:51.283,17 Jul 2021 23:07:12.341,381.058
87,18 Jul 2021 00:37:49.349,18 Jul 2021 00:43:24.466,335.117
88,18 Jul 2021 02:14:28.673,18 Jul 2021 02:20:19.750,351.077
89,18 Jul 2021 03:50:37.880,18 Jul 2021 03:56:58.218,380.338
90,18 Jul 2021 22:04:47.501,18 Jul 2021 22:11:06.675,379.174
91,18 Jul 2021 23:41:25.594,18 Jul 2021 23:47:16.092,350.498
92,19 Jul 2021 01:18:20.468,19 Jul 2021 01:23:55.740,335.271
93,19 Jul 2021 02:54:32.290,19 Jul 2021 03:00:54.147,381.857
94,19 Jul 2021 04:31:19.135,19 Jul 2021 04:35:58.430,279.295
95,19 Jul 2021 21:09:01.829,19 Jul 2021 21:14:52.635,350.806
96,19 Jul 2021 22:45:02.929,19 Jul 2021 22:51:11.660,368.731
97,20 Jul 2021 00:22:05.633,20 Jul 2021 00:27:34.757,329.124
98,20 Jul 2021 01:58:29.040,20 Jul 2021 02:04:37.691,368.652
99,20 Jul 2021 03:34:47.183,20 Jul 2021 03:40:40.883,353.699
100,20 Jul 2021 20:13:45.960,20 Jul 2021 20:18:19.030,273.070
101,20 Jul 2021 21:48:46.728,20 Jul 2021 21:55:07.972,381.243
102,20 Jul 2021 23:25:44.317,20 Jul 2021 23:31:19.661,335.344
103,21 Jul 2021 01:02:24.271,21 Jul 2021 01:08:14.300,350.028
104,21 Jul 2021 02:38:33.315,21 Jul 2021 02:44:53.719,380.404
105,21 Jul 2021 20:52:42.481,21 Jul 2021 20:59:01.129,378.648
106,21 Jul 2021 22:29:19.458,21 Jul 2021 22:35:10.529,351.071
107,22 Jul 2021 00:06:14.815,22 Jul 2021 00:11:49.350,334.535
108,22 Jul 2021 01:42:26.887,22 Jul 2021 01:48:48.088,381.201
109,22 Jul 2021 03:19:11.999,22 Jul 2021 03:23:55.152,283.153
110,22 Jul 2021 19:56:56.662,22 Jul 2021 20:02:45.626,348.964
111,22 Jul 2021 21:32:55.890,22 Jul 2021 21:39:05.229,369.339
112,22 Jul 2021 23:09:58.667,22 Jul 2021 23:15:27.594,328.927
113,23 Jul 2021 00:46:22.631,23 Jul 2021 00:52:30.281,367.650
114,23 Jul 2021 02:22:40.082,23 Jul 2021 02:28:35.137,355.055
115,23 Jul 2021 19:01:41.439,23 Jul 2021 19:06:09.784,268.345
116,23 Jul 2021 20:36:39.019,23 Jul 2021 20:43:00.528,381.509
117,23 Jul 2021 22:13:36.088,23 Jul 2021 22:19:11.789,335.701
118,23 Jul 2021 23:50:16.707,23 Jul 2021 23:56:05.749,349.042
119,24 Jul 2021 01:26:25.624,24 Jul 2021 01:32:46.126,380.503
120,24 Jul 2021 03:04:52.887,24 Jul 2021 03:05:40.315,47.428
121,24 Jul 2021 19:40:34.336,24 Jul 2021 19:46:52.487,378.151
122,24 Jul 2021 21:17:10.127,24 Jul 2021 21:23:01.899,351.772
123,24 Jul 2021 22:54:05.981,24 Jul 2021 22:59:39.870,333.889
124,25 Jul 2021 00:30:18.348,25 Jul 2021 00:36:38.926,380.578
125,25 Jul 2021 02:07:01.729,25 Jul 2021 02:11:48.817,287.088
126,25 Jul 2021 18:44:48.420,25 Jul 2021 18:50:35.477,347.057
127,25 Jul 2021 20:20:45.675,25 Jul 2021 20:26:55.722,370.047
128,25 Jul 2021 21:57:48.502,25 Jul 2021 22:03:17.350,328.848
129,25 Jul 2021 23:34:13.071,25 Jul 2021 23:40:19.763,366.692
130,26 Jul 2021 01:10:29.844,26 Jul 2021 01:16:26.316,356.472
131,26 Jul 2021 17:49:33.960,26 Jul 2021 17:53:57.292,263.332
132,26 Jul 2021 19:24:28.150,26 Jul 2021 19:30:49.995,381.845
133,26 Jul 2021 21:01:24.653,26 Jul 2021 21:07:00.845,336.192
134,26 Jul 2021 22:38:05.978,26 Jul 2021 22:43:54.095,348.117
135,27 Jul 2021 00:14:14.791,27 Jul 2021 00:20:35.444,380.653
136,27 Jul 2021 01:52:27.110,27 Jul 2021 01:53:45.761,78.650
137,27 Jul 2021 18:28:23.066,27 Jul 2021 18:34:40.730,377.664
138,27 Jul 2021 20:04:57.597,27 Jul 2021 20:10:50.195,352.599
139,27 Jul 2021 21:41:53.957,27 Jul 2021 21:47:27.298,333.341
140,27 Jul 2021 23:18:06.661,27 Jul 2021 23:24:26.661,380.000
141,28 Jul 2021 00:54:48.318,28 Jul 2021 00:59:39.423,291.105
142,28 Jul 2021 17:32:37.108,28 Jul 2021 17:38:22.173,345.065
143,28 Jul 2021 19:08:32.279,28 Jul 2021 19:14:43.134,370.855
144,28 Jul 2021 20:45:35.131,28 Jul 2021 20:51:04.030,328.899
145,28 Jul 2021 22:22:00.351,28 Jul 2021 22:28:06.139,365.788
146,28 Jul 2021 23:58:16.460,29 Jul 2021 00:04:14.418,357.959
147,29 Jul 2021 16:37:23.546,29 Jul 2021 16:41:41.520,257.974
148,29 Jul 2021 18:12:14.123,29 Jul 2021 18:18:36.364,382.241
149,29 Jul 2021 19:49:10.006,29 Jul 2021 19:54:46.825,336.819
150,29 Jul 2021 21:25:52.069,29 Jul 2021 21:31:39.334,347.265
151,29 Jul 2021 23:02:00.810,29 Jul 2021 23:08:21.660,380.850
152,30 Jul 2021 00:40:02.574,30 Jul 2021 00:41:43.776,101.202
153,30 Jul 2021 17:16:08.673,30 Jul 2021 17:22:25.847,377.174
154,30 Jul 2021 18:52:41.862,30 Jul 2021 18:58:35.412,353.550
155,30 Jul 2021 20:29:38.733,30 Jul 2021 20:35:11.630,332.896
156,30 Jul 2021 22:05:51.819,30 Jul 2021 22:12:11.283,379.464
157,30 Jul 2021 23:42:31.760,30 Jul 2021 23:47:26.967,295.207
158,31 Jul 2021 16:20:22.728,31 Jul 2021 16:26:05.702,342.974
159,31 Jul 2021 17:56:15.694,31 Jul 2021 18:02:27.457,371.763
160,31 Jul 2021 19:33:18.546,31 Jul 2021 19:38:47.618,329.073
161,31 Jul 2021 21:09:44.461,31 Jul 2021 21:15:49.397,364.936
162,31 Jul 2021 22:45:59.923,31 Jul 2021 22:51:59.438,359.515
163,1 Aug 2021 15:25:10.220,1 Aug 2021 15:29:22.438,252.218

