Orbit Analysis/Satellite-ISS_UNITY_25575-To-Facility-Victoria Access.csv

"Access","Start Time (UTCG)","Stop Time (UTCG)","Duration (sec)"
1,2 Jul 2021 07:25:46.749,2 Jul 2021 07:30:46.046,299.297
2,2 Jul 2021 09:00:59.364,2 Jul 2021 09:07:24.810,385.446
3,2 Jul 2021 10:37:31.972,2 Jul 2021 10:43:44.967,372.995
4,2 Jul 2021 12:13:53.728,2 Jul 2021 12:20:19.762,386.034
5,2 Jul 2021 13:50:23.645,2 Jul 2021 13:55:50.252,326.607
6,3 Jul 2021 06:31:15.745,3 Jul 2021 06:33:48.274,152.529
7,3 Jul 2021 08:05:03.547,3 Jul 2021 08:11:23.440,379.893
8,3 Jul 2021 09:41:24.125,3 Jul 2021 09:47:40.011,375.886
9,3 Jul 2021 11:17:53.244,3 Jul 2021 11:24:13.594,380.349
10,3 Jul 2021 12:54:10.867,3 Jul 2021 13:00:20.364,369.496
11,4 Jul 2021 07:09:21.118,4 Jul 2021 07:15:16.741,355.623
12,4 Jul 2021 08:45:16.095,4 Jul 2021 08:51:37.666,381.571
13,4 Jul 2021 10:21:50.245,4 Jul 2021 10:28:04.713,374.468
14,4 Jul 2021 11:58:06.839,4 Jul 2021 12:04:31.704,384.865
15,4 Jul 2021 13:35:11.189,4 Jul 2021 13:39:01.025,229.836
16,5 Jul 2021 06:14:00.782,5 Jul 2021 06:18:56.992,296.210
17,5 Jul 2021 07:49:11.569,5 Jul 2021 07:55:36.574,385.005
18,5 Jul 2021 09:25:43.906,5 Jul 2021 09:31:56.424,372.518
19,5 Jul 2021 11:02:05.767,5 Jul 2021 11:08:31.210,385.443
20,5 Jul 2021 12:38:34.983,5 Jul 2021 12:44:03.001,328.018
21,6 Jul 2021 05:19:32.166,6 Jul 2021 05:21:55.158,142.992
22,6 Jul 2021 06:53:15.073,6 Jul 2021 06:59:34.131,379.058
23,6 Jul 2021 08:29:35.011,6 Jul 2021 08:35:50.579,375.568
24,6 Jul 2021 10:06:04.251,6 Jul 2021 10:12:23.900,379.649
25,6 Jul 2021 11:42:21.606,6 Jul 2021 11:48:31.422,369.816
26,7 Jul 2021 05:57:32.180,7 Jul 2021 06:03:26.192,354.013
27,7 Jul 2021 07:33:26.023,7 Jul 2021 07:39:47.319,381.296
28,7 Jul 2021 09:10:00.165,7 Jul 2021 09:16:14.007,373.842
29,7 Jul 2021 10:46:16.745,7 Jul 2021 10:52:41.326,384.581
30,7 Jul 2021 12:23:19.286,7 Jul 2021 12:27:13.168,233.882
31,8 Jul 2021 05:02:11.817,8 Jul 2021 05:07:04.796,292.979
32,8 Jul 2021 06:37:20.668,8 Jul 2021 06:43:45.265,384.596
33,8 Jul 2021 08:13:52.723,8 Jul 2021 08:20:04.794,372.072
34,8 Jul 2021 09:50:14.718,8 Jul 2021 09:56:39.553,384.835
35,8 Jul 2021 11:26:43.236,8 Jul 2021 11:32:12.683,329.447
36,9 Jul 2021 04:07:46.095,9 Jul 2021 04:09:58.412,132.316
37,9 Jul 2021 05:41:23.508,9 Jul 2021 05:47:41.748,378.240
38,9 Jul 2021 07:17:42.771,9 Jul 2021 07:23:58.062,375.291
39,9 Jul 2021 08:54:12.157,9 Jul 2021 09:00:31.114,378.957
40,9 Jul 2021 10:30:29.255,9 Jul 2021 10:36:39.398,370.143
41,10 Jul 2021 04:45:40.178,10 Jul 2021 04:51:32.550,352.372
42,10 Jul 2021 06:21:32.828,10 Jul 2021 06:27:53.905,381.077
43,10 Jul 2021 07:58:06.977,10 Jul 2021 08:04:20.209,373.232
44,10 Jul 2021 09:34:23.562,10 Jul 2021 09:40:47.851,384.289
45,10 Jul 2021 11:11:24.286,10 Jul 2021 11:15:22.265,237.979
46,11 Jul 2021 03:50:19.849,11 Jul 2021 03:55:09.453,289.604
47,11 Jul 2021 05:25:26.651,11 Jul 2021 05:31:50.884,384.233
48,11 Jul 2021 07:01:58.422,11 Jul 2021 07:08:10.082,371.659
49,11 Jul 2021 08:38:20.571,11 Jul 2021 08:44:44.797,384.226
50,11 Jul 2021 10:14:48.381,11 Jul 2021 10:20:19.299,330.918
51,12 Jul 2021 02:55:57.678,12 Jul 2021 02:57:57.874,120.195
52,12 Jul 2021 04:29:28.842,12 Jul 2021 04:35:46.285,377.443
53,12 Jul 2021 06:05:47.407,12 Jul 2021 06:12:02.475,375.069
54,12 Jul 2021 07:42:16.956,12 Jul 2021 07:48:35.227,378.271
55,12 Jul 2021 09:18:33.804,12 Jul 2021 09:24:44.292,370.488
56,13 Jul 2021 03:33:45.107,13 Jul 2021 03:39:35.810,350.703
57,13 Jul 2021 05:09:36.499,13 Jul 2021 05:15:57.422,380.922
58,13 Jul 2021 06:46:10.659,13 Jul 2021 06:52:23.322,372.664
59,13 Jul 2021 08:22:27.278,13 Jul 2021 08:28:51.284,384.006
60,13 Jul 2021 09:59:26.182,13 Jul 2021 10:03:28.317,242.135
61,14 Jul 2021 02:38:24.874,14 Jul 2021 02:43:10.956,286.082
62,14 Jul 2021 04:13:29.509,14 Jul 2021 04:19:53.433,383.924
63,14 Jul 2021 05:50:00.981,14 Jul 2021 05:56:12.291,371.310
64,14 Jul 2021 07:26:23.315,14 Jul 2021 07:32:46.945,383.631
65,14 Jul 2021 09:02:50.424,14 Jul 2021 09:08:22.856,332.432
66,15 Jul 2021 01:44:07.162,15 Jul 2021 01:45:53.288,106.126
67,15 Jul 2021 03:17:31.069,15 Jul 2021 03:23:47.746,376.676
68,15 Jul 2021 04:53:48.894,15 Jul 2021 05:00:03.818,374.924
69,15 Jul 2021 06:30:18.627,15 Jul 2021 06:36:36.249,377.622
70,15 Jul 2021 08:06:35.251,15 Jul 2021 08:12:46.108,370.857
71,16 Jul 2021 02:21:46.959,16 Jul 2021 02:27:35.964,349.005
72,16 Jul 2021 03:57:37.028,16 Jul 2021 04:03:57.872,380.844
73,16 Jul 2021 05:34:11.199,16 Jul 2021 05:40:23.352,372.153
74,16 Jul 2021 07:10:27.884,16 Jul 2021 07:16:51.629,383.744
75,16 Jul 2021 08:47:24.963,16 Jul 2021 08:51:31.329,246.366
76,17 Jul 2021 01:26:26.892,17 Jul 2021 01:31:09.305,282.413
77,17 Jul 2021 03:01:29.233,17 Jul 2021 03:07:52.911,383.678
78,17 Jul 2021 04:38:00.390,17 Jul 2021 04:44:11.425,371.035
79,17 Jul 2021 06:14:22.937,17 Jul 2021 06:20:46.005,383.068
80,17 Jul 2021 07:50:49.351,17 Jul 2021 07:56:23.354,334.003
81,18 Jul 2021 00:32:15.013,18 Jul 2021 00:33:44.176,89.162
82,18 Jul 2021 02:05:30.182,18 Jul 2021 02:11:46.123,375.941
83,18 Jul 2021 03:41:47.223,18 Jul 2021 03:48:02.091,374.868
84,18 Jul 2021 05:18:17.169,18 Jul 2021 05:24:34.178,377.009
85,18 Jul 2021 06:54:33.585,18 Jul 2021 07:00:44.845,371.260
86,19 Jul 2021 01:09:45.730,19 Jul 2021 01:15:33.016,347.286
87,19 Jul 2021 02:45:34.404,19 Jul 2021 02:51:55.253,380.849
88,19 Jul 2021 04:22:08.599,19 Jul 2021 04:28:20.300,371.701
89,19 Jul 2021 05:58:25.368,19 Jul 2021 06:04:48.887,383.519
90,19 Jul 2021 07:35:20.623,19 Jul 2021 07:39:31.299,250.676
91,20 Jul 2021 00:14:25.905,20 Jul 2021 00:19:04.479,278.574
92,20 Jul 2021 01:49:25.816,20 Jul 2021 01:55:49.315,383.499
93,20 Jul 2021 03:25:56.638,20 Jul 2021 03:32:07.484,370.846
94,20 Jul 2021 05:02:19.426,20 Jul 2021 05:08:41.974,382.548
95,20 Jul 2021 06:38:45.151,20 Jul 2021 06:44:20.797,335.646
96,20 Jul 2021 23:20:22.332,20 Jul 2021 23:21:29.431,67.099
97,21 Jul 2021 00:53:26.174,21 Jul 2021 00:59:41.408,375.234
98,21 Jul 2021 02:29:42.391,21 Jul 2021 02:35:57.293,374.902
99,21 Jul 2021 04:06:12.561,21 Jul 2021 04:12:29.027,376.466
100,21 Jul 2021 05:42:28.788,21 Jul 2021 05:48:40.512,371.724
101,21 Jul 2021 23:57:41.419,22 Jul 2021 00:03:26.949,345.530
102,22 Jul 2021 01:33:28.619,22 Jul 2021 01:39:49.563,380.944
103,22 Jul 2021 03:10:02.834,22 Jul 2021 03:16:14.166,371.332
104,22 Jul 2021 04:46:19.718,22 Jul 2021 04:52:43.060,383.341
105,22 Jul 2021 06:23:13.152,22 Jul 2021 06:27:28.226,255.074
106,22 Jul 2021 23:02:21.915,22 Jul 2021 23:06:56.465,274.550
107,23 Jul 2021 00:37:19.251,23 Jul 2021 00:43:42.640,383.388
108,23 Jul 2021 02:13:49.712,23 Jul 2021 02:20:00.468,370.756
109,23 Jul 2021 03:50:12.771,23 Jul 2021 03:56:34.852,382.080
110,23 Jul 2021 05:26:37.821,23 Jul 2021 05:32:15.184,337.363
111,23 Jul 2021 22:08:34.005,23 Jul 2021 22:09:04.157,30.152
112,23 Jul 2021 23:41:19.042,23 Jul 2021 23:47:33.606,374.564
113,24 Jul 2021 01:17:34.385,24 Jul 2021 01:23:49.417,375.032
114,24 Jul 2021 02:54:04.792,24 Jul 2021 03:00:20.780,375.988
115,24 Jul 2021 04:30:20.855,24 Jul 2021 04:36:33.103,372.248
116,24 Jul 2021 22:45:34.022,24 Jul 2021 22:51:17.760,343.738
117,25 Jul 2021 00:21:19.667,25 Jul 2021 00:27:40.797,381.130
118,25 Jul 2021 01:57:53.894,25 Jul 2021 02:04:04.949,371.055
119,25 Jul 2021 03:34:10.925,25 Jul 2021 03:40:34.143,383.218
120,25 Jul 2021 05:11:02.544,25 Jul 2021 05:15:22.111,259.567
121,25 Jul 2021 21:50:14.933,25 Jul 2021 21:54:45.247,270.314
122,25 Jul 2021 23:25:09.535,25 Jul 2021 23:31:32.879,383.344
123,26 Jul 2021 01:01:39.615,26 Jul 2021 01:07:50.371,370.755
124,26 Jul 2021 02:38:02.962,26 Jul 2021 02:44:24.638,381.676
125,26 Jul 2021 04:14:27.336,26 Jul 2021 04:20:06.511,339.176
126,26 Jul 2021 22:29:08.783,26 Jul 2021 22:35:22.693,373.910
127,27 Jul 2021 00:05:23.199,27 Jul 2021 00:11:38.468,375.269
128,27 Jul 2021 01:41:53.859,27 Jul 2021 01:48:09.452,375.593
129,27 Jul 2021 03:18:09.776,27 Jul 2021 03:24:22.614,372.838
130,27 Jul 2021 21:33:23.539,27 Jul 2021 21:39:05.433,341.894
131,27 Jul 2021 23:09:07.543,27 Jul 2021 23:15:28.945,381.402
132,28 Jul 2021 00:45:41.778,28 Jul 2021 00:51:52.648,370.870
133,28 Jul 2021 02:21:58.979,28 Jul 2021 02:28:22.139,383.161
134,28 Jul 2021 03:58:48.790,28 Jul 2021 04:03:12.941,264.150
135,28 Jul 2021 20:38:04.968,28 Jul 2021 20:42:30.804,265.836
136,28 Jul 2021 22:12:56.664,28 Jul 2021 22:19:20.028,383.364
137,28 Jul 2021 23:49:26.323,28 Jul 2021 23:55:37.193,370.870
138,29 Jul 2021 01:25:49.988,29 Jul 2021 01:32:11.329,381.341
139,29 Jul 2021 03:02:13.703,29 Jul 2021 03:07:54.771,341.068
140,29 Jul 2021 21:16:55.399,29 Jul 2021 21:23:08.676,373.277
141,29 Jul 2021 22:53:08.828,29 Jul 2021 22:59:24.440,375.612
142,30 Jul 2021 00:29:39.748,30 Jul 2021 00:35:55.025,375.277
143,30 Jul 2021 02:05:55.541,30 Jul 2021 02:12:09.045,373.505
144,30 Jul 2021 20:21:09.978,30 Jul 2021 20:26:49.962,339.984
145,30 Jul 2021 21:56:52.244,30 Jul 2021 22:03:14.007,381.763
146,30 Jul 2021 23:33:26.475,30 Jul 2021 23:39:37.254,370.779
147,31 Jul 2021 01:09:43.870,31 Jul 2021 01:16:07.040,383.171
148,31 Jul 2021 02:46:31.892,31 Jul 2021 02:51:00.714,268.823
149,31 Jul 2021 19:25:52.032,31 Jul 2021 19:30:13.111,261.080
150,31 Jul 2021 21:00:40.638,31 Jul 2021 21:07:04.071,383.434
151,31 Jul 2021 22:37:09.842,31 Jul 2021 22:43:20.923,371.081
152,1 Aug 2021 00:13:33.842,1 Aug 2021 00:19:54.924,381.082
153,1 Aug 2021 01:49:56.910,1 Aug 2021 01:55:39.965,343.055

