Ground Segment/ORBIT -- MattB2019/Satellite-ISS_UNITY_25575-To-Facility-Saskatoon Access.csv

"Access","Start Time (UTCG)","Stop Time (UTCG)","Duration (sec)"
1,2 Jul 2021 07:28:14.532,2 Jul 2021 07:34:06.705,352.173
2,2 Jul 2021 09:03:59.018,2 Jul 2021 09:10:24.286,385.267
3,2 Jul 2021 10:40:10.762,2 Jul 2021 10:46:34.168,383.406
4,2 Jul 2021 12:16:38.038,2 Jul 2021 12:21:52.783,314.744
5,3 Jul 2021 06:32:47.587,3 Jul 2021 06:37:54.875,307.287
6,3 Jul 2021 08:08:02.218,3 Jul 2021 08:14:24.256,382.039
7,3 Jul 2021 09:44:11.063,3 Jul 2021 09:50:36.669,385.605
8,3 Jul 2021 11:20:27.506,3 Jul 2021 11:26:23.610,356.104
9,4 Jul 2021 05:37:50.201,4 Jul 2021 05:41:21.529,211.328
10,4 Jul 2021 07:12:10.351,4 Jul 2021 07:18:23.061,372.710
11,4 Jul 2021 08:48:11.046,4 Jul 2021 08:54:36.725,385.679
12,4 Jul 2021 10:24:23.941,4 Jul 2021 10:30:39.352,375.411
13,4 Jul 2021 12:01:18.730,4 Jul 2021 12:05:09.113,230.382
14,5 Jul 2021 06:16:27.571,5 Jul 2021 06:22:18.334,350.763
15,5 Jul 2021 07:52:11.282,5 Jul 2021 07:58:36.025,384.743
16,5 Jul 2021 09:28:22.886,5 Jul 2021 09:34:45.938,383.051
17,5 Jul 2021 11:04:49.585,5 Jul 2021 11:10:05.544,315.959
18,6 Jul 2021 05:21:00.275,6 Jul 2021 05:26:05.116,304.841
19,6 Jul 2021 06:56:13.589,6 Jul 2021 07:02:34.999,381.409
20,6 Jul 2021 08:32:22.194,6 Jul 2021 08:38:47.342,385.148
21,6 Jul 2021 10:08:38.365,6 Jul 2021 10:14:34.826,356.461
22,7 Jul 2021 04:26:03.467,7 Jul 2021 04:29:29.489,206.023
23,7 Jul 2021 06:00:20.942,7 Jul 2021 06:06:32.757,371.815
24,7 Jul 2021 07:36:21.177,7 Jul 2021 07:42:46.373,385.195
25,7 Jul 2021 09:12:33.932,7 Jul 2021 09:18:49.233,375.301
26,7 Jul 2021 10:49:27.320,7 Jul 2021 10:53:20.949,233.629
27,8 Jul 2021 05:04:37.546,8 Jul 2021 05:10:26.873,349.326
28,8 Jul 2021 06:40:20.447,8 Jul 2021 06:46:44.685,384.238
29,8 Jul 2021 08:16:31.920,8 Jul 2021 08:22:54.621,382.701
30,8 Jul 2021 09:52:58.039,8 Jul 2021 09:58:15.247,317.208
31,9 Jul 2021 04:09:09.935,9 Jul 2021 04:14:12.241,302.305
32,9 Jul 2021 05:44:21.864,9 Jul 2021 05:50:42.665,380.802
33,9 Jul 2021 07:20:30.227,9 Jul 2021 07:26:54.932,384.705
34,9 Jul 2021 08:56:46.132,9 Jul 2021 09:02:42.966,356.834
35,10 Jul 2021 03:14:13.837,10 Jul 2021 03:17:34.213,200.376
36,10 Jul 2021 04:48:28.444,10 Jul 2021 04:54:39.377,370.933
37,10 Jul 2021 06:24:28.203,10 Jul 2021 06:30:52.944,384.741
38,10 Jul 2021 08:00:40.828,10 Jul 2021 08:06:56.035,375.207
39,10 Jul 2021 09:37:32.805,10 Jul 2021 09:41:29.749,236.944
40,11 Jul 2021 03:52:44.450,11 Jul 2021 03:58:32.328,347.878
41,11 Jul 2021 05:28:26.503,11 Jul 2021 05:34:50.271,383.769
42,11 Jul 2021 07:04:37.853,11 Jul 2021 07:11:00.219,382.367
43,11 Jul 2021 08:41:03.393,11 Jul 2021 08:46:21.890,318.497
44,12 Jul 2021 02:57:16.561,12 Jul 2021 03:02:16.251,299.690
45,12 Jul 2021 04:32:27.030,12 Jul 2021 04:38:47.260,380.230
46,12 Jul 2021 06:08:35.149,12 Jul 2021 06:14:59.443,384.294
47,12 Jul 2021 07:44:50.799,12 Jul 2021 07:50:48.042,357.243
48,13 Jul 2021 02:02:21.321,13 Jul 2021 02:05:35.683,194.363
49,13 Jul 2021 03:36:32.845,13 Jul 2021 03:42:42.926,370.081
50,13 Jul 2021 05:12:32.112,13 Jul 2021 05:18:56.437,384.326
51,13 Jul 2021 06:48:44.620,13 Jul 2021 06:54:59.760,375.140
52,13 Jul 2021 08:25:35.177,13 Jul 2021 08:29:35.514,240.337
53,14 Jul 2021 02:40:48.273,14 Jul 2021 02:46:34.693,346.420
54,14 Jul 2021 04:16:29.439,14 Jul 2021 04:22:52.786,383.348
55,14 Jul 2021 05:52:40.672,14 Jul 2021 05:59:02.744,382.072
56,14 Jul 2021 07:29:05.635,14 Jul 2021 07:34:25.485,319.850
57,15 Jul 2021 01:45:20.146,15 Jul 2021 01:50:17.146,296.999
58,15 Jul 2021 03:20:29.079,15 Jul 2021 03:26:48.785,379.706
59,15 Jul 2021 04:56:36.951,15 Jul 2021 05:03:00.878,383.928
60,15 Jul 2021 06:32:52.355,15 Jul 2021 06:38:50.048,357.693
61,16 Jul 2021 00:50:25.930,16 Jul 2021 00:53:33.878,187.948
62,16 Jul 2021 02:24:34.135,16 Jul 2021 02:30:43.394,369.259
63,16 Jul 2021 04:00:32.893,16 Jul 2021 04:06:56.861,383.969
64,16 Jul 2021 05:36:45.295,16 Jul 2021 05:43:00.413,375.118
65,16 Jul 2021 07:13:34.430,16 Jul 2021 07:17:38.254,243.823
66,17 Jul 2021 01:28:49.011,17 Jul 2021 01:34:33.969,344.959
67,17 Jul 2021 03:04:29.244,17 Jul 2021 03:10:52.232,382.989
68,17 Jul 2021 04:40:40.368,17 Jul 2021 04:47:02.195,381.827
69,17 Jul 2021 06:17:04.755,17 Jul 2021 06:22:26.036,321.280
70,18 Jul 2021 00:33:20.686,18 Jul 2021 00:38:14.918,294.232
71,18 Jul 2021 02:08:28.000,18 Jul 2021 02:14:47.241,379.241
72,18 Jul 2021 03:44:35.620,18 Jul 2021 03:50:59.241,383.621
73,18 Jul 2021 05:20:50.788,18 Jul 2021 05:26:48.993,358.205
74,18 Jul 2021 23:38:27.684,18 Jul 2021 23:41:28.769,181.085
75,19 Jul 2021 01:12:32.313,19 Jul 2021 01:18:40.786,368.473
76,19 Jul 2021 02:48:30.535,19 Jul 2021 02:54:54.215,383.680
77,19 Jul 2021 04:24:42.842,19 Jul 2021 04:30:57.995,375.153
78,19 Jul 2021 06:01:30.541,19 Jul 2021 06:05:37.962,247.420
79,20 Jul 2021 00:16:46.652,20 Jul 2021 00:22:30.151,343.499
80,20 Jul 2021 01:52:25.908,20 Jul 2021 01:58:48.607,382.699
81,20 Jul 2021 03:28:36.928,20 Jul 2021 03:34:58.572,381.644
82,20 Jul 2021 05:05:00.744,20 Jul 2021 05:10:23.537,322.794
83,20 Jul 2021 23:21:18.178,20 Jul 2021 23:26:09.553,291.375
84,21 Jul 2021 00:56:23.785,21 Jul 2021 01:02:42.620,378.836
85,21 Jul 2021 02:32:31.146,21 Jul 2021 02:38:54.530,383.384
86,21 Jul 2021 04:08:46.089,21 Jul 2021 04:14:44.877,358.789
87,21 Jul 2021 22:26:26.614,21 Jul 2021 22:29:20.310,173.696
88,22 Jul 2021 00:00:27.370,22 Jul 2021 00:06:35.095,367.725
89,22 Jul 2021 01:36:25.029,22 Jul 2021 01:42:48.494,383.465
90,22 Jul 2021 03:12:37.251,22 Jul 2021 03:18:52.507,375.256
91,22 Jul 2021 04:49:23.515,22 Jul 2021 04:53:34.639,251.124
92,22 Jul 2021 23:04:41.193,22 Jul 2021 23:10:23.234,342.041
93,23 Jul 2021 00:40:19.424,23 Jul 2021 00:46:41.908,382.485
94,23 Jul 2021 02:16:30.343,23 Jul 2021 02:22:51.876,381.533
95,23 Jul 2021 03:52:53.589,23 Jul 2021 03:58:17.991,324.402
96,23 Jul 2021 22:09:12.621,23 Jul 2021 22:14:01.050,288.429
97,23 Jul 2021 23:44:16.427,23 Jul 2021 23:50:34.923,378.496
98,24 Jul 2021 01:20:23.518,24 Jul 2021 01:26:46.744,383.226
99,24 Jul 2021 02:56:38.245,24 Jul 2021 03:02:37.702,359.457
100,24 Jul 2021 21:14:22.754,24 Jul 2021 21:17:08.467,165.713
101,24 Jul 2021 22:48:19.295,24 Jul 2021 22:54:26.316,367.020
102,25 Jul 2021 00:24:16.365,25 Jul 2021 00:30:39.699,383.335
103,25 Jul 2021 02:00:28.511,25 Jul 2021 02:06:43.947,375.436
104,25 Jul 2021 03:37:13.339,25 Jul 2021 03:41:28.288,254.949
105,25 Jul 2021 21:52:32.632,25 Jul 2021 21:58:13.208,340.576
106,25 Jul 2021 23:28:09.783,25 Jul 2021 23:34:32.133,382.350
107,26 Jul 2021 01:04:20.601,26 Jul 2021 01:10:42.103,381.502
108,26 Jul 2021 02:40:43.283,26 Jul 2021 02:46:09.395,326.111
109,26 Jul 2021 20:57:04.018,26 Jul 2021 21:01:49.387,285.370
110,26 Jul 2021 22:32:05.920,26 Jul 2021 22:38:24.142,378.221
111,27 Jul 2021 00:08:12.729,27 Jul 2021 00:14:35.877,383.148
112,27 Jul 2021 01:44:27.249,27 Jul 2021 01:50:27.455,360.206
113,27 Jul 2021 03:22:36.299,27 Jul 2021 03:23:24.030,47.731
114,27 Jul 2021 20:02:16.165,27 Jul 2021 20:04:53.156,156.991
115,27 Jul 2021 21:36:08.089,27 Jul 2021 21:42:14.446,366.357
116,27 Jul 2021 23:12:04.536,27 Jul 2021 23:18:27.820,383.285
117,28 Jul 2021 00:48:16.613,28 Jul 2021 00:54:32.314,375.701
118,28 Jul 2021 02:25:00.006,28 Jul 2021 02:29:18.896,258.890
119,28 Jul 2021 20:40:20.970,28 Jul 2021 20:46:00.070,339.100
120,28 Jul 2021 22:15:56.979,28 Jul 2021 22:22:19.274,382.295
121,28 Jul 2021 23:52:07.695,28 Jul 2021 23:58:29.251,381.555
122,29 Jul 2021 01:28:29.822,29 Jul 2021 01:33:57.749,327.927
123,29 Jul 2021 19:44:52.373,29 Jul 2021 19:49:34.562,282.189
124,29 Jul 2021 21:19:52.262,29 Jul 2021 21:26:10.270,378.008
125,29 Jul 2021 22:55:58.770,29 Jul 2021 23:02:21.932,383.161
126,30 Jul 2021 00:32:13.091,30 Jul 2021 00:38:14.145,361.055
127,30 Jul 2021 02:10:09.729,30 Jul 2021 02:11:24.099,74.370
128,30 Jul 2021 18:50:06.923,30 Jul 2021 18:52:34.291,147.368
129,30 Jul 2021 20:23:53.745,30 Jul 2021 20:29:59.468,365.723
130,30 Jul 2021 21:59:49.536,30 Jul 2021 22:06:12.860,383.324
131,30 Jul 2021 23:36:01.550,30 Jul 2021 23:42:17.600,376.050
132,31 Jul 2021 01:12:43.510,31 Jul 2021 01:17:06.459,262.948
133,31 Jul 2021 19:28:06.207,31 Jul 2021 19:33:43.798,337.591
134,31 Jul 2021 21:03:41.009,31 Jul 2021 21:10:03.325,382.315
135,31 Jul 2021 22:39:51.618,31 Jul 2021 22:46:13.310,381.691
136,1 Aug 2021 00:16:13.189,1 Aug 2021 00:21:43.040,329.851

