Ground Segment/Orbit Analysis/Satellite-ISS_UNITY_25575-To-Facility-Halifax Access.csv

"Access","Start Time (UTCG)","Stop Time (UTCG)","Duration (sec)"
1,2 Jul 2021 02:47:12.970,2 Jul 2021 02:50:56.886,223.916
2,2 Jul 2021 04:21:43.704,2 Jul 2021 04:28:07.486,383.781
3,2 Jul 2021 05:58:44.901,2 Jul 2021 06:04:14.550,329.650
4,2 Jul 2021 07:35:38.486,2 Jul 2021 07:41:07.565,329.078
5,2 Jul 2021 09:11:45.350,2 Jul 2021 09:18:10.824,385.473
6,2 Jul 2021 10:48:49.800,2 Jul 2021 10:52:50.232,240.432
7,3 Jul 2021 03:25:50.304,3 Jul 2021 03:32:05.308,375.004
8,3 Jul 2021 05:02:23.047,3 Jul 2021 05:08:14.657,351.610
9,3 Jul 2021 06:39:32.136,3 Jul 2021 06:44:47.212,315.076
10,3 Jul 2021 08:15:48.405,3 Jul 2021 08:22:01.004,372.599
11,3 Jul 2021 09:52:11.718,3 Jul 2021 09:57:53.298,341.581
12,4 Jul 2021 02:30:19.124,4 Jul 2021 02:35:51.157,332.034
13,4 Jul 2021 04:06:04.901,4 Jul 2021 04:12:17.558,372.657
14,4 Jul 2021 05:43:17.610,4 Jul 2021 05:48:32.984,315.373
15,4 Jul 2021 07:19:51.416,4 Jul 2021 07:25:41.728,350.312
16,4 Jul 2021 08:55:59.462,4 Jul 2021 09:02:18.763,379.300
17,5 Jul 2021 01:35:28.820,5 Jul 2021 01:39:06.609,217.789
18,5 Jul 2021 03:09:56.078,5 Jul 2021 03:16:19.521,383.443
19,5 Jul 2021 04:46:56.621,5 Jul 2021 04:52:26.325,329.705
20,5 Jul 2021 06:23:50.692,5 Jul 2021 06:29:18.628,327.936
21,5 Jul 2021 07:59:57.543,5 Jul 2021 08:06:22.397,384.854
22,5 Jul 2021 09:36:59.968,5 Jul 2021 09:41:04.636,244.668
23,6 Jul 2021 02:14:02.225,6 Jul 2021 02:20:16.119,373.894
24,6 Jul 2021 03:50:33.770,6 Jul 2021 03:56:25.608,351.838
25,6 Jul 2021 05:27:43.120,6 Jul 2021 05:32:57.403,314.283
26,6 Jul 2021 07:03:59.689,6 Jul 2021 07:10:11.197,371.508
27,6 Jul 2021 08:40:22.147,6 Jul 2021 08:46:05.101,342.954
28,7 Jul 2021 01:18:30.928,7 Jul 2021 01:24:00.434,329.507
29,7 Jul 2021 02:54:14.801,7 Jul 2021 03:00:27.581,372.780
30,7 Jul 2021 04:31:27.348,7 Jul 2021 04:36:42.424,315.077
31,7 Jul 2021 06:08:01.662,7 Jul 2021 06:13:50.704,349.042
32,7 Jul 2021 07:44:09.357,7 Jul 2021 07:50:28.766,379.408
33,8 Jul 2021 00:23:41.833,8 Jul 2021 00:27:13.035,211.202
34,8 Jul 2021 01:58:05.345,8 Jul 2021 02:04:28.482,383.137
35,8 Jul 2021 03:35:05.196,8 Jul 2021 03:40:35.028,329.832
36,8 Jul 2021 05:11:59.794,8 Jul 2021 05:17:26.570,326.776
37,8 Jul 2021 06:48:06.663,8 Jul 2021 06:54:30.848,384.185
38,8 Jul 2021 08:25:07.041,8 Jul 2021 08:29:15.975,248.934
39,9 Jul 2021 01:02:11.067,9 Jul 2021 01:08:23.852,372.785
40,9 Jul 2021 02:38:41.348,9 Jul 2021 02:44:33.496,352.148
41,9 Jul 2021 04:15:50.978,9 Jul 2021 04:21:04.494,313.516
42,9 Jul 2021 05:52:07.889,9 Jul 2021 05:58:18.263,370.374
43,9 Jul 2021 07:28:29.491,9 Jul 2021 07:34:13.830,344.339
44,10 Jul 2021 00:06:39.714,10 Jul 2021 00:12:06.579,326.865
45,10 Jul 2021 01:42:21.573,10 Jul 2021 01:48:34.542,372.968
46,10 Jul 2021 03:19:33.939,10 Jul 2021 03:24:48.785,314.846
47,10 Jul 2021 04:56:08.818,10 Jul 2021 05:01:56.553,347.735
48,10 Jul 2021 06:32:16.172,10 Jul 2021 06:38:35.673,379.501
49,10 Jul 2021 23:11:52.027,10 Jul 2021 23:15:16.144,204.117
50,11 Jul 2021 00:46:11.496,11 Jul 2021 00:52:34.376,382.880
51,11 Jul 2021 02:23:10.614,11 Jul 2021 02:28:40.663,330.049
52,11 Jul 2021 04:00:05.782,11 Jul 2021 04:05:31.399,325.617
53,11 Jul 2021 05:36:12.700,11 Jul 2021 05:42:36.182,383.482
54,11 Jul 2021 07:13:11.023,11 Jul 2021 07:17:24.259,253.236
55,11 Jul 2021 23:50:16.823,11 Jul 2021 23:56:28.488,371.665
56,12 Jul 2021 01:26:45.770,12 Jul 2021 01:32:38.325,352.554
57,12 Jul 2021 03:03:55.696,12 Jul 2021 03:09:08.492,312.796
58,12 Jul 2021 04:40:12.998,12 Jul 2021 04:46:22.205,369.208
59,12 Jul 2021 06:16:33.739,12 Jul 2021 06:22:19.485,345.745
60,12 Jul 2021 22:54:45.460,12 Jul 2021 23:00:09.595,324.134
61,13 Jul 2021 00:30:25.197,13 Jul 2021 00:36:38.438,373.241
62,13 Jul 2021 02:07:37.370,13 Jul 2021 02:12:52.073,314.703
63,13 Jul 2021 03:44:12.868,13 Jul 2021 03:49:59.282,346.415
64,13 Jul 2021 05:20:19.896,13 Jul 2021 05:26:39.479,379.583
65,13 Jul 2021 21:59:59.429,13 Jul 2021 22:03:15.888,196.459
66,13 Jul 2021 23:34:14.522,13 Jul 2021 23:40:37.198,382.676
67,14 Jul 2021 01:11:12.863,14 Jul 2021 01:16:43.240,330.377
68,14 Jul 2021 02:48:08.645,14 Jul 2021 02:53:33.119,324.474
69,14 Jul 2021 04:24:15.644,14 Jul 2021 04:30:38.404,382.760
70,14 Jul 2021 06:01:11.906,14 Jul 2021 06:05:29.490,257.584
71,14 Jul 2021 22:38:19.487,14 Jul 2021 22:44:30.035,370.548
72,15 Jul 2021 00:14:47.026,15 Jul 2021 00:20:40.094,353.068
73,15 Jul 2021 01:51:57.260,15 Jul 2021 01:57:09.403,312.143
74,15 Jul 2021 03:28:15.004,15 Jul 2021 03:34:23.029,368.025
75,15 Jul 2021 05:04:34.883,15 Jul 2021 05:10:22.066,347.183
76,15 Jul 2021 21:42:48.178,15 Jul 2021 21:48:09.467,321.288
77,15 Jul 2021 23:18:25.668,15 Jul 2021 23:24:39.275,373.608
78,16 Jul 2021 00:55:37.627,16 Jul 2021 01:00:52.292,314.665
79,16 Jul 2021 02:32:13.803,16 Jul 2021 02:37:58.899,345.096
80,16 Jul 2021 04:08:20.521,16 Jul 2021 04:14:40.188,379.667
81,16 Jul 2021 20:48:04.075,16 Jul 2021 20:51:12.225,188.149
82,16 Jul 2021 22:22:14.418,16 Jul 2021 22:28:36.945,382.527
83,16 Jul 2021 23:59:11.930,17 Jul 2021 00:04:42.758,330.828
84,17 Jul 2021 01:36:08.360,17 Jul 2021 01:41:31.739,323.379
85,17 Jul 2021 03:12:15.486,17 Jul 2021 03:18:37.522,382.037
86,17 Jul 2021 04:49:09.680,17 Jul 2021 04:53:31.668,261.987
87,17 Jul 2021 21:26:19.053,17 Jul 2021 21:32:28.480,369.427
88,17 Jul 2021 23:02:45.106,17 Jul 2021 23:08:38.808,353.702
89,18 Jul 2021 00:39:55.656,18 Jul 2021 00:45:07.232,311.576
90,18 Jul 2021 02:16:13.896,18 Jul 2021 02:22:20.738,366.842
91,18 Jul 2021 03:52:32.919,18 Jul 2021 03:58:21.578,348.659
92,18 Jul 2021 20:30:47.863,18 Jul 2021 20:36:06.190,318.327
93,18 Jul 2021 22:06:22.977,18 Jul 2021 22:12:37.041,374.063
94,18 Jul 2021 23:43:34.697,18 Jul 2021 23:48:49.447,314.750
95,19 Jul 2021 01:20:11.601,19 Jul 2021 01:25:55.403,343.802
96,19 Jul 2021 02:56:18.037,19 Jul 2021 03:02:37.808,379.771
97,19 Jul 2021 19:36:06.017,19 Jul 2021 19:39:05.093,179.076
98,19 Jul 2021 21:10:11.177,19 Jul 2021 21:16:33.611,382.434
99,19 Jul 2021 22:47:07.807,19 Jul 2021 22:52:39.218,331.411
100,20 Jul 2021 00:24:04.920,20 Jul 2021 00:29:27.260,322.341
101,20 Jul 2021 02:00:12.213,20 Jul 2021 02:06:33.528,381.316
102,20 Jul 2021 03:37:04.343,20 Jul 2021 03:41:30.786,266.444
103,20 Jul 2021 20:14:15.521,20 Jul 2021 20:20:23.823,368.302
104,20 Jul 2021 21:50:40.002,20 Jul 2021 21:56:34.462,354.460
105,20 Jul 2021 23:27:50.870,20 Jul 2021 23:33:01.981,311.112
106,21 Jul 2021 01:04:09.662,21 Jul 2021 01:10:15.338,365.677
107,21 Jul 2021 02:40:27.834,21 Jul 2021 02:46:18.018,350.184
108,21 Jul 2021 19:18:44.517,21 Jul 2021 19:23:59.748,315.231
109,21 Jul 2021 20:54:17.121,21 Jul 2021 21:00:31.746,374.626
110,21 Jul 2021 22:31:28.569,21 Jul 2021 22:36:43.536,314.966
111,22 Jul 2021 00:08:06.248,22 Jul 2021 00:13:48.797,342.549
112,22 Jul 2021 01:44:12.434,22 Jul 2021 01:50:32.338,379.904
113,22 Jul 2021 18:24:05.329,22 Jul 2021 18:26:54.410,169.081
114,22 Jul 2021 19:58:04.797,22 Jul 2021 20:04:27.190,382.393
115,22 Jul 2021 21:35:00.482,22 Jul 2021 21:40:32.619,332.137
116,22 Jul 2021 23:11:58.308,22 Jul 2021 23:17:19.689,321.381
117,23 Jul 2021 00:48:05.815,23 Jul 2021 00:54:26.428,380.613
118,23 Jul 2021 02:24:55.877,23 Jul 2021 02:29:26.855,270.978
119,23 Jul 2021 19:02:08.889,23 Jul 2021 19:08:16.046,367.157
120,23 Jul 2021 20:38:31.703,23 Jul 2021 20:44:27.051,355.348
121,23 Jul 2021 22:15:42.889,23 Jul 2021 22:20:53.652,310.763
122,23 Jul 2021 23:52:02.289,23 Jul 2021 23:58:06.822,364.533
123,24 Jul 2021 01:28:19.620,24 Jul 2021 01:34:11.387,351.767
124,24 Jul 2021 18:06:38.147,24 Jul 2021 18:11:50.130,311.983
125,24 Jul 2021 19:42:08.090,24 Jul 2021 19:48:23.367,375.277
126,24 Jul 2021 21:19:19.233,24 Jul 2021 21:24:34.557,315.324
127,24 Jul 2021 22:55:57.743,24 Jul 2021 23:01:39.084,341.341
128,25 Jul 2021 00:32:03.703,25 Jul 2021 00:38:23.771,380.068
129,25 Jul 2021 17:12:02.111,25 Jul 2021 17:14:40.061,157.950
130,25 Jul 2021 18:45:55.275,25 Jul 2021 18:52:17.673,382.399
131,25 Jul 2021 20:22:49.949,25 Jul 2021 20:28:22.954,333.005
132,25 Jul 2021 21:59:48.512,25 Jul 2021 22:05:09.020,320.508
133,25 Jul 2021 23:35:56.280,25 Jul 2021 23:42:16.223,379.943
134,26 Jul 2021 01:12:44.283,26 Jul 2021 01:17:19.866,275.583
135,26 Jul 2021 17:49:59.162,26 Jul 2021 17:56:05.142,365.980
136,26 Jul 2021 19:26:20.212,26 Jul 2021 19:32:16.569,356.357
137,26 Jul 2021 21:03:31.704,26 Jul 2021 21:08:42.243,310.539
138,26 Jul 2021 22:39:51.767,26 Jul 2021 22:45:55.192,363.425
139,27 Jul 2021 00:16:08.269,27 Jul 2021 00:22:01.681,353.412
140,27 Jul 2021 16:54:28.751,27 Jul 2021 16:59:37.317,308.566
141,27 Jul 2021 18:29:55.892,27 Jul 2021 18:36:11.910,376.018
142,27 Jul 2021 20:07:06.680,27 Jul 2021 20:12:22.506,315.825
143,27 Jul 2021 21:43:46.073,27 Jul 2021 21:49:26.259,340.187
144,27 Jul 2021 23:19:51.831,27 Jul 2021 23:26:12.112,380.281
145,28 Jul 2021 15:59:56.511,28 Jul 2021 16:02:21.883,145.372
146,28 Jul 2021 17:33:42.611,28 Jul 2021 17:40:05.051,382.440
147,28 Jul 2021 19:10:36.203,28 Jul 2021 19:16:10.219,334.016
148,28 Jul 2021 20:47:35.526,28 Jul 2021 20:52:55.253,319.727
149,28 Jul 2021 22:23:43.600,28 Jul 2021 22:30:02.904,379.304
150,29 Jul 2021 00:00:29.553,29 Jul 2021 00:05:09.814,280.262
151,29 Jul 2021 16:37:46.335,29 Jul 2021 16:43:51.103,364.767
152,29 Jul 2021 18:14:05.523,29 Jul 2021 18:20:03.010,357.487
153,29 Jul 2021 19:51:17.305,29 Jul 2021 19:56:27.751,310.446
154,29 Jul 2021 21:27:38.086,29 Jul 2021 21:33:40.445,362.360
155,29 Jul 2021 23:03:53.772,29 Jul 2021 23:09:48.903,355.131
156,30 Jul 2021 15:42:16.350,30 Jul 2021 15:47:21.287,304.937
157,30 Jul 2021 17:17:40.518,30 Jul 2021 17:23:57.355,376.837
158,30 Jul 2021 18:54:50.905,30 Jul 2021 19:00:07.382,316.477
159,30 Jul 2021 20:31:31.219,30 Jul 2021 20:37:10.322,339.102
160,30 Jul 2021 22:07:36.811,30 Jul 2021 22:13:57.348,380.537
161,31 Jul 2021 14:47:48.781,31 Jul 2021 14:49:59.636,130.855
162,31 Jul 2021 16:21:26.809,31 Jul 2021 16:27:49.316,382.507
163,31 Jul 2021 17:58:19.239,31 Jul 2021 18:03:54.405,335.166
164,31 Jul 2021 19:35:19.338,31 Jul 2021 19:40:38.382,319.044
165,31 Jul 2021 21:11:27.765,31 Jul 2021 21:17:46.469,378.705
166,31 Jul 2021 22:48:11.680,31 Jul 2021 22:52:56.685,285.005
167,1 Aug 2021 15:25:30.419,1 Aug 2021 15:31:33.906,363.487

